Name,Description,Latitude,Longitude,InfoURL,ImageURL
UCSB,A great university located along the California coast!,34.416929,-119.845991,"https://en.wikipedia.org/wiki/University_of_California,_Santa_Barbara",https://web.physics.ucsb.edu/~Women/images/ucsb-big.jpg
Great Wall of China,"Stretching over 13,000 miles. Lanmark in China",40.4319,116.5704,https://en.wikipedia.org/wiki/Great_Wall_of_China,https://images.nationalgeographic.org/image/upload/t_edhub_resource_key_image/v1638892506/EducationHub/photos/the-great-wall-of-china.jpg
Eiffel Tower,"A wrought-iron lattice tower in Paris, France",48.8584,2.2945,https://en.wikipedia.org/wiki/Eiffel_Tower,https://upload.wikimedia.org/wikipedia/commons/thumb/8/85/Tour_Eiffel_Wikimedia_Commons_%28cropped%29.jpg/800px-Tour_Eiffel_Wikimedia_Commons_%28cropped%29.jpg
Grand Canyon,"A steep-sided canyon carved by the Colorado River in Arizona, USA",36.1069,-112.1129,https://en.wikipedia.org/wiki/Grand_Canyon,https://t1.gstatic.com/licensed-image?q=tbn:ANd9GcSY7x0shpPE3J7JCulJ5cXC2vYmOCl_LNqhiUPuDeWOA3MaUUut7AM3Wt8VJzFs5gxA
Machu Picchu,Incan citadel set high in the Andes Mountains in Peru,-13.1631,-72.545,https://en.wikipedia.org/wiki/Machu_Picchu,https://upload.wikimedia.org/wikipedia/commons/e/eb/Machu_Picchu%2C_Peru.jpg
Sydney Opera House,Multi-venue performing arts center in Sydney,-33.8568,151.2153,https://en.wikipedia.org/wiki/Sydney_Opera_House,https://upload.wikimedia.org/wikipedia/commons/thumb/a/a0/Sydney_Australia._%2821339175489%29.jpg/2560px-Sydney_Australia._%2821339175489%29.jpg
